{"type":"FeatureCollection","features":[{"type":"Feature","properties":{"name":"ï¿½ï¿½ï¿½[ï¿½\\ï¿½ï¿½ï¿½ï¿½ï¿½cï¿½ï¿½ï¿½ï¿½ï¿½Xï¿½ï¿½ï¿½X","address":"ï¿½ï¿½ï¿½ï¿½6-6-14","":""},"geometry":{"type":"Point","coordinates":[139.48026,35.538163]}},{"type":"Feature","properties":{"name":"ï¿½Jï¿½Cï¿½ï¿½ï¿½Yï¿½zï¿½[ï¿½ï¿½ï¿½ï¿½ï¿½cï¿½ï¿½ï¿½ï¿½ï¿½ï¿½ï¿½X","address":"ï¿½ï¿½ï¿½Rï¿½ï¿½ï¿½u3-6-6","":""},"geometry":{"type":"Point","coordinates":[139.374897,35.601385]}},{"type":"Feature","properties":{"name":"ï¿½gï¿½Cï¿½Uï¿½ï¿½Xï¿½Eï¿½xï¿½rï¿½[ï¿½Uï¿½ï¿½Xï¿½ï¿½ï¿½cï¿½ï¿½ï¿½ï¿½ï¿½ï¿½ï¿½X","address":"ï¿½ï¿½ï¿½Rï¿½ï¿½ï¿½u1-7-2","":""},"geometry":{"type":"Point","coordinates":[139.381619,35.598585]}},{"type":"Feature","properties":{"name":"ï¿½ï¿½ï¿½[ï¿½\\ï¿½ï¿½ï¿½ï¿½ï¿½cï¿½ï¿½ï¿½İ’ï¿½ï¿½X","address":"ï¿½ï¿½ï¿½İ’ï¿½1009-8","":""},"geometry":{"type":"Point","coordinates":[139.407004,35.579207]}},{"type":"Feature","properties":{"name":"ï¿½ï¿½ï¿½[ï¿½\\ï¿½ï¿½ï¿½ï¿½ï¿½cï¿½}ï¿½tï¿½ï¿½ï¿½X","address":"ï¿½}ï¿½tï¿½ï¿½612-1","":""},"geometry":{"type":"Point","coordinates":[139.417207,35.581201]}},{"type":"Feature","properties":{"name":"ï¿½tï¿½@ï¿½~ï¿½ï¿½ï¿½[ï¿½}ï¿½[ï¿½gï¿½Gï¿½hï¿½ï¿½ï¿½ï¿½ï¿½ï¿½ï¿½X","address":"ï¿½ï¿½ï¿½ï¿½ï¿½ï¿½3621-1","":""},"geometry":{"type":"Point","coordinates":[139.298898,35.609801]}},{"type":"Feature","properties":{"name":"ï¿½tï¿½@ï¿½~ï¿½ï¿½ï¿½[ï¿½}ï¿½[ï¿½gï¿½ï¿½ï¿½cï¿½ï¿½ï¿½ï¿½ï¿½ï¿½ï¿½X","address":"ï¿½ï¿½ï¿½Rï¿½ï¿½ï¿½u5-1-4","":""},"geometry":{"type":"Point","coordinates":[139.364987,35.602798]}},{"type":"Feature","properties":{"name":"ï¿½Zï¿½uï¿½ï¿½-ï¿½Cï¿½ï¿½ï¿½uï¿½ï¿½ï¿½@ï¿½ï¿½ï¿½ï¿½wï¿½ï¿½ï¿½ï¿½ï¿½Lï¿½ï¿½ï¿½ï¿½ï¿½pï¿½Xï¿½X","address":"ï¿½ï¿½ï¿½ï¿½ï¿½ï¿½4342-13","":""},"geometry":{"type":"Point","coordinates":[139.2965142,35.61387031]}},{"type":"Feature","properties":{"name":"ï¿½Zï¿½uï¿½ï¿½-ï¿½Cï¿½ï¿½ï¿½uï¿½ï¿½ï¿½ï¿½ï¿½cï¿½ï¿½ï¿½Rï¿½ï¿½ï¿½uï¿½Sï¿½ï¿½ï¿½Ú“X","address":"ï¿½ï¿½ï¿½Rï¿½ï¿½ï¿½u4-9-2","":""},"geometry":{"type":"Point","coordinates":[139.3523935,35.60689959]}},{"type":"Feature","properties":{"name":"ï¿½Zï¿½uï¿½ï¿½-ï¿½Cï¿½ï¿½ï¿½uï¿½ï¿½ï¿½ï¿½ï¿½cï¿½ï¿½X","address":"ï¿½ï¿½ï¿½Rï¿½ï¿½828-1","":""},"geometry":{"type":"Point","coordinates":[139.3810358,35.59224731]}},{"type":"Feature","properties":{"name":"ï¿½Zï¿½uï¿½ï¿½-ï¿½Cï¿½ï¿½ï¿½uï¿½ï¿½ï¿½ï¿½ï¿½cï¿½ï¿½Õ“X","address":"ï¿½ï¿½Õ’ï¿½3163-4","":""},"geometry":{"type":"Point","coordinates":[139.3933311,35.5864954]}},{"type":"Feature","properties":{"name":"ï¿½Zï¿½uï¿½ï¿½-ï¿½Cï¿½ï¿½ï¿½uï¿½ï¿½ï¿½ï¿½ï¿½cï¿½ï¿½ï¿½ï¿½ï¿½ï¿½ï¿½ï¿½ï¿½ï¿½ï¿½ï¿½ï¿½X","address":"ï¿½Ø‘]ï¿½ï¿½3-25-5","":""},"geometry":{"type":"Point","coordinates":[139.4199914,35.5722343]}},{"type":"Feature","properties":{"name":"ï¿½Zï¿½uï¿½ï¿½-ï¿½Cï¿½ï¿½ï¿½uï¿½ï¿½ï¿½ï¿½ï¿½cï¿½sï¿½Ø‘]ï¿½ï¿½ï¿½X","address":"ï¿½Ø‘]ï¿½ï¿½4-2-2","":""},"geometry":{"type":"Point","coordinates":[139.4282997,35.56235242]}},{"type":"Feature","properties":{"name":"ï¿½Zï¿½uï¿½ï¿½-ï¿½Cï¿½ï¿½ï¿½uï¿½ï¿½ï¿½{ï¿½ï¿½ï¿½cï¿½X","address":"ï¿½{ï¿½ï¿½ï¿½c3239","":""},"geometry":{"type":"Point","coordinates":[139.443339,35.57299175]}},{"type":"Feature","properties":{"name":"ï¿½Zï¿½uï¿½ï¿½-ï¿½Cï¿½ï¿½ï¿½uï¿½ï¿½ï¿½ï¿½ï¿½cï¿½Rï¿½ï¿½Vï¿½ï¿½ï¿½X","address":"ï¿½Rï¿½è’¬1936-1","":""},"geometry":{"type":"Point","coordinates":[139.4286709,35.57101469]}},{"type":"Feature","properties":{"name":"ï¿½Zï¿½uï¿½ï¿½-ï¿½Cï¿½ï¿½ï¿½uï¿½ï¿½ï¿½ï¿½ï¿½cï¿½Rï¿½è’¬ï¿½ï¿½ï¿½X","address":"ï¿½Rï¿½è’¬130-1","":""},"geometry":{"type":"Point","coordinates":[139.4277876,35.57672775]}},{"type":"Feature","properties":{"name":"ï¿½ï¿½ï¿½Rï¿½ï¿½","address":"ï¿½ã¬ï¿½Rï¿½cï¿½ï¿½1504","":""},"geometry":{"type":"Point","coordinates":[139.4016418,35.60125155]}},{"type":"Feature","properties":{"name":"ï¿½Zï¿½uï¿½ï¿½-ï¿½Cï¿½ï¿½ï¿½uï¿½ï¿½ï¿½ï¿½ï¿½cï¿½å‘ ï¿½X","address":"ï¿½å‘ ï¿½ï¿½560-1","":""},"geometry":{"type":"Point","coordinates":[139.4594943,35.58857862]}},{"type":"Feature","properties":{"name":"ï¿½Zï¿½uï¿½ï¿½-ï¿½Cï¿½ï¿½ï¿½uï¿½ï¿½ï¿½ï¿½ï¿½cï¿½^ï¿½ï¿½ï¿½ï¿½ï¿½X","address":"ï¿½^ï¿½ï¿½ï¿½ï¿½3-21-20","":""},"geometry":{"type":"Point","coordinates":[139.4662704,35.59965493]}},{"type":"Feature","properties":{"name":"ï¿½ï¿½ï¿½ï¿½ï¿½zï¿½[ï¿½ï¿½ï¿½Yï¿½ï¿½ï¿½cï¿½Oï¿½Ö“X","address":"ï¿½Oï¿½Ö’ï¿½281-1","":""},"geometry":{"type":"Point","coordinates":[139.50035,35.579011]}},{"type":"Feature","properties":{"name":"ï¿½ï¿½ï¿½ï¿½ï¿½Cï¿½Xï¿½ßï¿½","address":"ï¿½\\ï¿½ï¿½ï¿½J3-2-1","":""},"geometry":{"type":"Point","coordinates":[139.486032,35.584693]}},{"type":"Feature","properties":{"name":"ï¿½tï¿½@ï¿½~ï¿½ï¿½ï¿½[ï¿½}ï¿½[ï¿½gï¿½ï¿½ï¿½cï¿½\\ï¿½ï¿½ï¿½Jï¿½ï¿½ï¿½X","address":"ï¿½\\ï¿½ï¿½ï¿½J4-19-15","":""},"geometry":{"type":"Point","coordinates":[139.48596,35.585243]}},{"type":"Feature","properties":{"name":"ï¿½Zï¿½uï¿½ï¿½-ï¿½Cï¿½ï¿½ï¿½uï¿½ï¿½ï¿½ï¿½ï¿½cï¿½\\ï¿½ï¿½ï¿½J4ï¿½ï¿½ï¿½Ú“X","address":"ï¿½\\ï¿½ï¿½ï¿½J4-6-1","":""},"geometry":{"type":"Point","coordinates":[139.4809216,35.58784448]}},{"type":"Feature","properties":{"name":"ï¿½Zï¿½uï¿½ï¿½-ï¿½Cï¿½ï¿½ï¿½uï¿½ï¿½ï¿½ï¿½ï¿½cï¿½ï¿½ï¿½Ì‘ä“Œï¿½X","address":"ï¿½ï¿½ï¿½ï¿½1-1-18","":""},"geometry":{"type":"Point","coordinates":[139.454074,35.571888]}},{"type":"Feature","properties":{"name":"ï¿½iï¿½ï¿½ï¿½jï¿½Oï¿½aï¿½Êï¿½wï¿½ï¿½ï¿½X","address":"ï¿½Êï¿½wï¿½ï¿½2-11-26","":""},"geometry":{"type":"Point","coordinates":[139.4620809,35.56277102]}},{"type":"Feature","properties":{"name":"ï¿½Zï¿½uï¿½ï¿½-ï¿½Cï¿½ï¿½ï¿½uï¿½ï¿½ï¿½ï¿½ï¿½cï¿½ï¿½ï¿½ï¿½ï¿½ï¿½Rï¿½ï¿½ï¿½Ú“X","address":"ï¿½ï¿½ï¿½ï¿½ï¿½ï¿½3-8-7","":""},"geometry":{"type":"Point","coordinates":[139.4783434,35.55460497]}},{"type":"Feature","properties":{"name":"ï¿½Zï¿½uï¿½ï¿½-ï¿½Cï¿½ï¿½ï¿½uï¿½ï¿½ï¿½ï¿½ï¿½cï¿½|ï¿½vï¿½ï¿½ï¿½ï¿½ï¿½uï¿½X","address":"ï¿½ï¿½ï¿½ï¿½ï¿½ï¿½2-1-2","":""},"geometry":{"type":"Point","coordinates":[139.476285,35.549651]}},{"type":"Feature","properties":{"name":"ï¿½Zï¿½uï¿½ï¿½-ï¿½Cï¿½ï¿½ï¿½uï¿½ï¿½ï¿½ï¿½ï¿½ï¿½ï¿½cï¿½Sï¿½ï¿½ï¿½Ú“X","address":"ï¿½ï¿½ï¿½ï¿½ï¿½c4-11-18","":""},"geometry":{"type":"Point","coordinates":[139.4484835,35.54240892]}},{"type":"Feature","properties":{"name":"ï¿½tï¿½@ï¿½~ï¿½ï¿½ï¿½[ï¿½}ï¿½[ï¿½gï¿½Å‰ï¿½ï¿½ï¿½pï¿½Ù“ï¿½ï¿½ï¿½ï¿½X","address":"ï¿½ï¿½ï¿½ï¿½ï¿½c3-15-1","":""},"geometry":{"type":"Point","coordinates":[139.452757,35.542842]}},{"type":"Feature","properties":{"name":"ï¿½Zï¿½uï¿½ï¿½-ï¿½Cï¿½ï¿½ï¿½uï¿½ï¿½ï¿½ï¿½ï¿½cï¿½ï¿½ï¿½Jï¿½X","address":"ï¿½ï¿½ï¿½J196-1","":""},"geometry":{"type":"Point","coordinates":[139.4565651,35.55557374]}},{"type":"Feature","properties":{"name":"ï¿½Ğ‰ï•Ÿï¿½ï¿½ï¿½@ï¿½lï¿½ì’¬ï¿½cï¿½ï¿½ï¿½ï¿½ï¿½ï¿½Î‰ï¿½İ‚ï¿½ï¿½ï¿½zï¿½[ï¿½ï¿½","address":"ï¿½ì’¬ï¿½c4-10-38","":""},"geometry":{"type":"Point","coordinates":[139.4645521,35.51564663]}},{"type":"Feature","properties":{"name":"ï¿½Zï¿½uï¿½ï¿½-ï¿½Cï¿½ï¿½ï¿½uï¿½ï¿½ï¿½ï¿½ï¿½cï¿½ï¿½ï¿½Xï¿½ï¿½X","address":"ï¿½ï¿½ï¿½X6-5-1","":""},"geometry":{"type":"Point","coordinates":[139.459773,35.524909]}},{"type":"Feature","properties":{"name":"ï¿½Zï¿½uï¿½ï¿½-ï¿½Cï¿½ï¿½ï¿½uï¿½ï¿½ï¿½ï¿½ï¿½cï¿½ï¿½ï¿½ï¿½Qï¿½ï¿½ï¿½Ú“X","address":"ï¿½ï¿½ï¿½ï¿½2-25-3","":""},"geometry":{"type":"Point","coordinates":[139.471811,35.530428]}},{"type":"Feature","properties":{"name":"ï¿½Zï¿½uï¿½ï¿½-ï¿½Cï¿½ï¿½ï¿½uï¿½ï¿½ï¿½ï¿½ï¿½cï¿½Xï¿½ï¿½ï¿½ßŠÔ“X","address":"ï¿½ì’¬ï¿½c5-3-53","":""},"geometry":{"type":"Point","coordinates":[139.4748798,35.51341177]}},{"type":"Feature","properties":{"name":"ï¿½Zï¿½uï¿½ï¿½-ï¿½Cï¿½ï¿½ï¿½uï¿½ï¿½ï¿½ï¿½ï¿½ï¿½ï¿½ï¿½ï¿½cï¿½Cï¿½ï¿½ï¿½^ï¿½[ï¿½X","address":"ï¿½ßŠï¿½8-15-21","":""},"geometry":{"type":"Point","coordinates":[139.476827,35.510339]}},{"type":"Feature","properties":{"name":"ï¿½Å‚ñ‚©‚Ìƒï¿½ï¿½}ï¿½Oï¿½`ï¿½@ï¿½ï¿½ï¿½İ“X","address":"ï¿½ï¿½ï¿½ï¿½1-13-5","":""},"geometry":{"type":"Point","coordinates":[139.4138157,35.57271236]}},{"type":"Feature","properties":{"name":"ï¿½fï¿½Cï¿½Tï¿½[ï¿½rï¿½Xï¿½@ï¿½İ‚ï¿½ï¿½ï¿½ï¿½Ì‰ï¿½","address":"ï¿½{ï¿½ï¿½ï¿½c2797","":""},"geometry":{"type":"Point","coordinates":[139.4456016,35.56643737]}},{"type":"Feature","properties":{"name":"ï¿½Í‚ï¿½ï¿½ß‚Ìˆï¿½ï¿½","address":"ï¿½{ï¿½ï¿½ï¿½c2507-4ï¿½@ï¿½n16-106","":""},"geometry":{"type":"Point","coordinates":[139.4359604,35.56715753]}},{"type":"Feature","properties":{"name":"ï¿½ßì‚ ï¿½ñ‚µ‚ñ‘Š’kï¿½ï¿½","address":"ï¿½ï¿½ï¿½cï¿½sï¿½ßï¿½6-7-2ï¿½@ï¿½ï¿½103ï¿½ï¿½ï¿½ï¿½","":""},"geometry":{"type":"Point","coordinates":[139.4694568,35.59082219]}},{"type":"Feature","properties":{"name":"salon de ï¿½İ‚ï¿½ï¿½ï¿½","address":"ï¿½ï¿½ï¿½cï¿½sï¿½Ø‘]ï¿½ï¿½3-24-15 ï¿½Gï¿½ï¿½ï¿½Aï¿½Cï¿½rï¿½ï¿½ï¿½Pï¿½e","":""},"geometry":{"type":"Point","coordinates":[139.4227958,35.56510728]}},{"type":"Feature","properties":{"name":"ï¿½ï¿½sï¿½ï¿½ï¿½Zï¿½ï¿½ï¿½^ï¿½[","address":"ï¿½ï¿½ï¿½cï¿½sï¿½ï¿½ï¿½ï¿½ï¿½ï¿½795-1","":""},"geometry":{"type":"Point","coordinates":[139.3333318,35.60430536]}},{"type":"Feature","properties":{"name":"ï¿½ï¿½ï¿½ï¿½ï¿½ï¿½ï¿½ï¿½ï¿½ï¿½ï¿½ï¿½ï¿½iï¿½Ç—ï¿½ï¿½ï¿½ï¿½ï¿½ï¿½j","address":"ï¿½ï¿½ï¿½cï¿½sï¿½ï¿½ï¿½ï¿½ï¿½ï¿½2018ï¿½Ô’n","":""},"geometry":{"type":"Point","coordinates":[139.3196688,35.60931825]}},{"type":"Feature","properties":{"name":"ï¿½ï¿½ï¿½ï¿½ï¿½ï¿½ï¿½ï¿½ï¿½ï¿½ï¿½ï¿½ï¿½iï¿½ï¿½Æ“ï¿½ï¿½ï¿½ï¿½j","address":"ï¿½ï¿½ï¿½cï¿½sï¿½ï¿½ï¿½ï¿½ï¿½ï¿½2018ï¿½Ô’n","":""},"geometry":{"type":"Point","coordinates":[139.3198017,35.60951415]}},{"type":"Feature","properties":{"name":"ï¿½ï¿½nï¿½ï¿½Âï¿½ï¿½Nï¿½Zï¿½ï¿½ï¿½^ï¿½[","address":"ï¿½ï¿½ï¿½cï¿½sï¿½ï¿½ï¿½ï¿½ï¿½ï¿½5307-2","":""},"geometry":{"type":"Point","coordinates":[139.2765802,35.6122812]}},{"type":"Feature","properties":{"name":"ï¿½ï¿½ï¿½ï¿½ï¿½Î“ï¿½ï¿½ï¿½ï¿½ï¿½Qï¿½Öï¿½","address":"ï¿½ï¿½ï¿½cï¿½sï¿½ï¿½ï¿½Rï¿½ï¿½ï¿½u1-11ï¿½|14","":""},"geometry":{"type":"Point","coordinates":[139.387157,35.59763649]}},{"type":"Feature","properties":{"name":"ï¿½ï¿½ï¿½Rï¿½ï¿½ï¿½ï¿½ï¿½ï¿½ï¿½","address":"ï¿½ï¿½ï¿½cï¿½sï¿½ï¿½ï¿½Rï¿½ï¿½ï¿½u3-1-1","":""},"geometry":{"type":"Point","coordinates":[139.3805601,35.5989315]}},{"type":"Feature","properties":{"name":"ï¿½sï¿½ï¿½ï¿½ï¿½ï¿½Rï¿½ï¿½ï¿½ï¿½ï¿½ï¿½ï¿½ï¿½","address":"ï¿½ï¿½ï¿½cï¿½sï¿½ï¿½ï¿½Rï¿½ï¿½ï¿½u2ï¿½E4ï¿½ï¿½ï¿½ï¿½","":""},"geometry":{"type":"Point","coordinates":[139.3663932,35.60810059]}},{"type":"Feature","properties":{"name":"ï¿½Oï¿½cï¿½ÚRï¿½ï¿½ï¿½ï¿½","address":"ï¿½ï¿½ï¿½cï¿½sï¿½ï¿½ï¿½Rï¿½ï¿½ï¿½u5-38","":""},"geometry":{"type":"Point","coordinates":[139.3540712,35.60590505]}},{"type":"Feature","properties":{"name":"ï¿½ï¿½ï¿½Rï¿½ï¿½ï¿½Rï¿½ï¿½ï¿½ï¿½","address":"ï¿½ï¿½ï¿½cï¿½sï¿½ï¿½ï¿½Rï¿½ï¿½ï¿½u5-4","":""},"geometry":{"type":"Point","coordinates":[139.3644451,35.60279467]}},{"type":"Feature","properties":{"name":"ï¿½ï¿½ï¿½Rï¿½sï¿½ï¿½ï¿½Zï¿½ï¿½ï¿½^ï¿½[","address":"ï¿½ï¿½ï¿½cï¿½sï¿½ï¿½ï¿½Rï¿½ï¿½2507-1","":""},"geometry":{"type":"Point","coordinates":[139.36902,35.59714835]}},{"type":"Feature","properties":{"name":"ï¿½ï¿½ï¿½Rï¿½cï¿½Î’n","address":"ï¿½ï¿½ï¿½cï¿½sï¿½ï¿½ï¿½ï¿½ï¿½Rï¿½cï¿½ï¿½ï¿½Eï¿½ã¬ï¿½Rï¿½cï¿½ï¿½","":""},"geometry":{"type":"Point","coordinates":[139.416774,35.59505145]}},{"type":"Feature","properties":{"name":"ï¿½ï¿½ï¿½cï¿½sï¿½oï¿½Cï¿½Iï¿½Gï¿½lï¿½ï¿½ï¿½Mï¿½[ï¿½Zï¿½ï¿½ï¿½^ï¿½[","address":"ï¿½ï¿½ï¿½cï¿½sï¿½ï¿½ï¿½ï¿½ï¿½Rï¿½cï¿½ï¿½3160","":""},"geometry":{"type":"Point","coordinates":[139.4109448,35.58777258]}},{"type":"Feature","properties":{"name":"ï¿½Jï¿½Ë’rï¿½ï¿½ï¿½ï¿½","address":"ï¿½ï¿½ï¿½cï¿½sï¿½ï¿½ï¿½Rï¿½cï¿½ï¿½ï¿½ï¿½1-19-1","":""},"geometry":{"type":"Point","coordinates":[139.40188,35.5881534]}},{"type":"Feature","properties":{"name":"ï¿½ï¿½ï¿½ï¿½ï¿½Î“ï¿½ï¿½ï¿½ï¿½ï¿½ï¿½ï¿½ï¿½ï¿½ï¿½gï¿½Cï¿½ï¿½","address":"ï¿½ï¿½ï¿½cï¿½sï¿½ï¿½Õ’ï¿½3434-2","":""},"geometry":{"type":"Point","coordinates":[139.402443,35.58682185]}},{"type":"Feature","properties":{"name":"ï¿½ï¿½ï¿½cï¿½sï¿½ï¿½ï¿½ï¿½ï¿½ï¿½ï¿½vï¿½[ï¿½ï¿½","address":"ï¿½ï¿½ï¿½cï¿½sï¿½}ï¿½tï¿½ï¿½199-1","":""},"geometry":{"type":"Point","coordinates":[139.4140035,35.58639266]}},{"type":"Feature","properties":{"name":"ï¿½ï¿½ï¿½ï¿½ï¿½ï¿½ï¿½ï¿½ï¿½iï¿½ï¿½ï¿½ï¿½ï¿½ï¿½ï¿½gï¿½Cï¿½ï¿½ï¿½j","address":"ï¿½ï¿½ï¿½cï¿½sï¿½ï¿½ï¿½ï¿½1-3-1","":""},"geometry":{"type":"Point","coordinates":[139.4226101,35.57372166]}},{"type":"Feature","properties":{"name":"ï¿½ï¿½ï¿½ï¿½ï¿½ï¿½ï¿½ï¿½ï¿½iï¿½Ø‘]ï¿½ï¿½ï¿½gï¿½Cï¿½ï¿½ï¿½j","address":"ï¿½ï¿½ï¿½cï¿½sï¿½ï¿½ï¿½ï¿½1-3-1","":""},"geometry":{"type":"Point","coordinates":[139.4225113,35.57210544]}},{"type":"Feature","properties":{"name":"ï¿½ï¿½ï¿½ï¿½ï¿½sï¿½ï¿½ï¿½Zï¿½ï¿½ï¿½^ï¿½[","address":"ï¿½ï¿½ï¿½cï¿½sï¿½ï¿½ï¿½ï¿½3-14-2","":""},"geometry":{"type":"Point","coordinates":[139.4158638,35.57851191]}},{"type":"Feature","properties":{"name":"ï¿½ï¿½ï¿½ï¿½ï¿½ï¿½ï¿½ï¿½ï¿½iï¿½ï¿½ï¿½É‚ï¿½ç©ï¿½Rï¿½Ù“ï¿½ï¿½j","address":"ï¿½ï¿½ï¿½cï¿½sï¿½Rï¿½è’¬1804-1","":""},"geometry":{"type":"Point","coordinates":[139.4241924,35.57298742]}},{"type":"Feature","properties":{"name":"ï¿½Ø‘]ï¿½Rï¿½ï¿½}ï¿½ï¿½ï¿½ï¿½","address":"ï¿½ï¿½ï¿½cï¿½sï¿½Rï¿½è’¬2160","":""},"geometry":{"type":"Point","coordinates":[139.4367322,35.56838416]}},{"type":"Feature","properties":{"name":"ï¿½Ø‘]ï¿½Rï¿½ï¿½Rï¿½~ï¿½ï¿½ï¿½jï¿½eï¿½Bï¿½Zï¿½ï¿½ï¿½^ï¿½[","address":"ï¿½ï¿½ï¿½cï¿½sï¿½Rï¿½è’¬2160-4","":""},"geometry":{"type":"Point","coordinates":[139.4366123,35.56859933]}},{"type":"Feature","properties":{"name":"ï¿½ï¿½ï¿½İŒï¿½ï¿½ï¿½","address":"ï¿½ï¿½ï¿½cï¿½sï¿½ï¿½ï¿½ï¿½1-16-1","":""},"geometry":{"type":"Point","coordinates":[139.4126627,35.57130622]}},{"type":"Feature","properties":{"name":"ï¿½Ø‘]ï¿½Xï¿½ï¿½Rï¿½~ï¿½ï¿½ï¿½jï¿½eï¿½Bï¿½Zï¿½ï¿½ï¿½^ï¿½[","address":"ï¿½ï¿½ï¿½cï¿½sï¿½Ø‘]ï¿½ï¿½1-2","":""},"geometry":{"type":"Point","coordinates":[139.4285798,35.55513015]}},{"type":"Feature","properties":{"name":"ï¿½ï¿½ï¿½cï¿½ï¿½ï¿½ï¿½ï¿½ï¿½ï¿½ï¿½ï¿½Aï¿½iï¿½eï¿½jï¿½Xï¿½Rï¿½[ï¿½gï¿½ï¿½ï¿½j","address":"ï¿½ï¿½ï¿½cï¿½sï¿½ï¿½ï¿½ï¿½3-20-60","":""},"geometry":{"type":"Point","coordinates":[139.4464175,35.55753184]}},{"type":"Feature","properties":{"name":"ï¿½ï¿½ï¿½cï¿½ï¿½ï¿½ï¿½ï¿½ï¿½ï¿½ï¿½ï¿½Bï¿½iï¿½Tï¿½ï¿½ï¿½ï¿½ï¿½cï¿½ï¿½ï¿½Ìˆï¿½ï¿½1Fï¿½j","address":"ï¿½ï¿½ï¿½cï¿½sï¿½ï¿½ï¿½ï¿½3-20-60","":""},"geometry":{"type":"Point","coordinates":[139.4471737,35.55696686]}},{"type":"Feature","properties":{"name":"ï¿½ï¿½ï¿½cï¿½ï¿½ï¿½ï¿½ï¿½ï¿½ï¿½ï¿½ï¿½Cï¿½iï¿½Tï¿½ï¿½ï¿½ï¿½ï¿½cï¿½ï¿½ï¿½Ìˆï¿½ï¿½2Fï¿½ï¿½ï¿½Ú“Iï¿½ï¿½ï¿½ï¿½ï¿½j","address":"ï¿½ï¿½ï¿½cï¿½sï¿½ï¿½ï¿½ï¿½3-20-60","":""},"geometry":{"type":"Point","coordinates":[139.4471737,35.55696686]}},{"type":"Feature","properties":{"name":"ï¿½Ø‘]ï¿½Rï¿½ï¿½ï¿½ï¿½ï¿½","address":"ï¿½ï¿½ï¿½cï¿½sï¿½{ï¿½ï¿½ï¿½c1966-1","":""},"geometry":{"type":"Point","coordinates":[139.4354321,35.56514032]}},{"type":"Feature","properties":{"name":"ï¿½qï¿½Ç‚ï¿½ï¿½nï¿½ï¿½ï¿½Lï¿½ï¿½ï¿½ï¿½ï¿½pï¿½Xï¿½Ğ‚È‚ï¿½ï¿½ï¿½","address":"ï¿½ï¿½ï¿½cï¿½sï¿½{ï¿½ï¿½ï¿½c2863","":""},"geometry":{"type":"Point","coordinates":[139.4453979,35.56776306]}},{"type":"Feature","properties":{"name":"ï¿½{ï¿½ï¿½ï¿½cï¿½ï¿½ÕŒï¿½ï¿½ï¿½","address":"ï¿½ï¿½ï¿½cï¿½sï¿½{ï¿½ï¿½ï¿½c3455","":""},"geometry":{"type":"Point","coordinates":[139.4501295,35.56749645]}},{"type":"Feature","properties":{"name":"ï¿½ï¿½ï¿½ï¿½ï¿½Rï¿½ï¿½ï¿½ï¿½","address":"ï¿½ï¿½ï¿½cï¿½sï¿½{ï¿½ï¿½ï¿½c3486","":""},"geometry":{"type":"Point","coordinates":[139.4464038,35.56786974]}},{"type":"Feature","properties":{"name":"ï¿½sï¿½ï¿½ï¿½ï¿½ï¿½ï¿½ï¿½ï¿½","address":"ï¿½ï¿½ï¿½cï¿½sï¿½{ï¿½ï¿½ï¿½c3562","":""},"geometry":{"type":"Point","coordinates":[139.4512617,35.56731949]}},{"type":"Feature","properties":{"name":"ï¿½ßì’†ï¿½ï¿½ï¿½ï¿½ï¿½ï¿½ï¿½A","address":"ï¿½ï¿½ï¿½cï¿½sï¿½ßï¿½6-6","":""},"geometry":{"type":"Point","coordinates":[139.4712707,35.59081122]}},{"type":"Feature","properties":{"name":"ï¿½ßï¿½}ï¿½ï¿½ï¿½ï¿½","address":"ï¿½ï¿½ï¿½cï¿½sï¿½ßï¿½6-7-2","":""},"geometry":{"type":"Point","coordinates":[139.4703125,35.59085456]}},{"type":"Feature","properties":{"name":"ï¿½aï¿½ï¿½ï¿½ï¿½wï¿½|ï¿½vï¿½ï¿½ï¿½zï¿½[ï¿½ï¿½ï¿½ßï¿½","address":"ï¿½ï¿½ï¿½cï¿½sï¿½\\ï¿½ï¿½ï¿½J1-2-1","":""},"geometry":{"type":"Point","coordinates":[139.4789833,35.58284188]}},{"type":"Feature","properties":{"name":"ï¿½ßŒï¿½ï¿½ï¿½Nï¿½ï¿½ï¿½[ï¿½ï¿½ï¿½Zï¿½ï¿½ï¿½^ï¿½[","address":"ï¿½ï¿½ï¿½cï¿½sï¿½Oï¿½Ö—ÎR1-1","":""},"geometry":{"type":"Point","coordinates":[139.49196,35.57070192]}},{"type":"Feature","properties":{"name":"ï¿½Oï¿½Ö‚İ‚Ç‚ï¿½Rï¿½ï¿½ï¿½ï¿½","address":"ï¿½ï¿½ï¿½cï¿½sï¿½Oï¿½Ö—ÎR1-24-1","":""},"geometry":{"type":"Point","coordinates":[139.4916773,35.57180049]}},{"type":"Feature","properties":{"name":"ï¿½ï¿½Jï¿½Ëï¿½ï¿½Rï¿½ï¿½ï¿½ï¿½","address":"ï¿½ï¿½ï¿½cï¿½sï¿½Oï¿½Ö—ÎR4-1-18","":""},"geometry":{"type":"Point","coordinates":[139.4913035,35.57777488]}},{"type":"Feature","properties":{"name":"ï¿½Oï¿½ÖƒRï¿½~ï¿½ï¿½ï¿½jï¿½eï¿½Bï¿½Zï¿½ï¿½ï¿½^ï¿½[","address":"ï¿½ï¿½ï¿½cï¿½sï¿½Oï¿½Ö—ÎR4-14-1","":""},"geometry":{"type":"Point","coordinates":[139.4930652,35.57718338]}},{"type":"Feature","properties":{"name":"ï¿½qï¿½Ç‚ï¿½ï¿½Zï¿½ï¿½ï¿½^ï¿½[ï¿½Â‚ï¿½ï¿½ï¿½ï¿½","address":"ï¿½ï¿½ï¿½cï¿½sï¿½å‘ ï¿½ï¿½1913","":""},"geometry":{"type":"Point","coordinates":[139.465902,35.58984193]}},{"type":"Feature","properties":{"name":"ï¿½ßï¿½sï¿½ï¿½ï¿½Zï¿½ï¿½ï¿½^ï¿½[","address":"ï¿½ï¿½ï¿½cï¿½sï¿½å‘ ï¿½ï¿½1981-4","":""},"geometry":{"type":"Point","coordinates":[139.4673853,35.58887085]}},{"type":"Feature","properties":{"name":"ï¿½ï¿½ï¿½Rï¿½ï¿½ï¿½ï¿½ï¿½ï¿½ï¿½ï¿½ï¿½ï¿½","address":"ï¿½ï¿½ï¿½cï¿½sï¿½ï¿½Ã“cï¿½ï¿½897","":""},"geometry":{"type":"Point","coordinates":[139.4532895,35.58890471]}},{"type":"Feature","properties":{"name":"ï¿½ï¿½Ã“cï¿½ï¿½ï¿½ï¿½ï¿½Ç—ï¿½ï¿½ï¿½ï¿½iï¿½ï¿½ï¿½Cï¿½ï¿½ï¿½Xï¿½^ï¿½ï¿½ï¿½h2ï¿½Kï¿½`6ï¿½Kï¿½j","address":"ï¿½ï¿½ï¿½cï¿½sï¿½ï¿½Ã“cï¿½ï¿½2035","":""},"geometry":{"type":"Point","coordinates":[139.4386079,35.59192042]}},{"type":"Feature","properties":{"name":"ï¿½ï¿½Ã“cï¿½ï¿½ï¿½ï¿½ï¿½Pï¿½ï¿½ï¿½ï¿½ï¿½@ï¿½iï¿½ï¿½ï¿½Ú“Iï¿½Lï¿½ï¿½j","address":"ï¿½ï¿½ï¿½cï¿½sï¿½ï¿½Ã“cï¿½ï¿½2035","":""},"geometry":{"type":"Point","coordinates":[139.4377204,35.59194539]}},{"type":"Feature","properties":{"name":"ï¿½ï¿½Ã“cï¿½ï¿½ï¿½ï¿½ï¿½Pï¿½ï¿½ï¿½ï¿½ï¿½Aï¿½iï¿½Åï¿½ï¿½Lï¿½ï¿½Oï¿½j","address":"ï¿½ï¿½ï¿½cï¿½sï¿½ï¿½Ã“cï¿½ï¿½2035","":""},"geometry":{"type":"Point","coordinates":[139.4403504,35.59224041]}},{"type":"Feature","properties":{"name":"ï¿½ï¿½Ã“cï¿½ï¿½ï¿½ï¿½ï¿½Qï¿½ï¿½ï¿½ï¿½ï¿½iï¿½eï¿½jï¿½Xï¿½Rï¿½[ï¿½gï¿½eï¿½j","address":"ï¿½ï¿½ï¿½cï¿½sï¿½ï¿½Ã“cï¿½ï¿½2035","":""},"geometry":{"type":"Point","coordinates":[139.4417228,35.59298819]}},{"type":"Feature","properties":{"name":"ï¿½ï¿½Ã“cï¿½ï¿½ï¿½ï¿½ï¿½Qï¿½ï¿½ï¿½ï¿½ï¿½iï¿½ï¿½ÌŒï¿½ï¿½Lï¿½ï¿½j","address":"ï¿½ï¿½ï¿½cï¿½sï¿½ï¿½Ã“cï¿½ï¿½2035","":""},"geometry":{"type":"Point","coordinates":[139.4457486,35.59143867]}},{"type":"Feature","properties":{"name":"ï¿½ï¿½Ã“cï¿½ï¿½ï¿½ï¿½ï¿½Ç—ï¿½ï¿½ï¿½ï¿½iï¿½ï¿½ï¿½Cï¿½ï¿½ï¿½Xï¿½^ï¿½ï¿½ï¿½h1ï¿½Kï¿½j","address":"ï¿½ï¿½ï¿½cï¿½sï¿½ï¿½Ã“cï¿½ï¿½2035","":""},"geometry":{"type":"Point","coordinates":[139.4386089,35.59192318]}},{"type":"Feature","properties":{"name":"ï¿½Ú‚ï¿½ï¿½ñ‰€ƒgï¿½Cï¿½ï¿½","address":"ï¿½ï¿½ï¿½cï¿½sï¿½ï¿½Ã“cï¿½ï¿½2274-1","":""},"geometry":{"type":"Point","coordinates":[139.4437018,35.58330925]}},{"type":"Feature","properties":{"name":"ï¿½Ó‚é‚³ï¿½Æ”_ï¿½ï¿½ï¿½","address":"ï¿½ï¿½ï¿½cï¿½sï¿½ï¿½Ã“cï¿½ï¿½2288","":""},"geometry":{"type":"Point","coordinates":[139.4440466,35.58244792]}},{"type":"Feature","properties":{"name":"ï¿½ï¿½tï¿½rï¿½ï¿½ï¿½ï¿½ï¿½gï¿½Cï¿½ï¿½","address":"ï¿½ï¿½ï¿½cï¿½sï¿½ï¿½Ã“cï¿½ï¿½3270","":""},"geometry":{"type":"Point","coordinates":[139.4483277,35.57919715]}},{"type":"Feature","properties":{"name":"ï¿½ï¿½ï¿½cï¿½sï¿½tï¿½Hï¿½gï¿½Tï¿½ï¿½ï¿½ï¿½","address":"ï¿½ï¿½ï¿½cï¿½sï¿½ï¿½Ã“cï¿½ï¿½3272","":""},"geometry":{"type":"Point","coordinates":[139.4488101,35.57992534]}},{"type":"Feature","properties":{"name":"ï¿½ï¿½ï¿½ï¿½ï¿½Rï¿½tï¿½@ï¿½[ï¿½}ï¿½[ï¿½Yï¿½Zï¿½ï¿½ï¿½^ï¿½[","address":"ï¿½ï¿½ï¿½cï¿½sï¿½ï¿½Ã“cï¿½ï¿½3497-1","":""},"geometry":{"type":"Point","coordinates":[139.4432298,35.58101677]}},{"type":"Feature","properties":{"name":"ï¿½ï¿½ï¿½ï¿½Hï¿½hï¿½ï¿½ï¿½Rï¿½ğ—¬Šï¿½","address":"ï¿½ï¿½ï¿½cï¿½sï¿½ï¿½ï¿½ï¿½Hï¿½ï¿½888-1","":""},"geometry":{"type":"Point","coordinates":[139.4385311,35.59827355]}},{"type":"Feature","properties":{"name":"ï¿½ï¿½ï¿½ï¿½Hï¿½ï¿½ï¿½ï¿½ï¿½@ï¿½iï¿½Ç—ï¿½ï¿½ï¿½ï¿½ï¿½ï¿½j","address":"ï¿½ï¿½ï¿½cï¿½sï¿½ï¿½ï¿½ï¿½Hï¿½ï¿½2023-1","":""},"geometry":{"type":"Point","coordinates":[139.4538011,35.59807168]}},{"type":"Feature","properties":{"name":"ï¿½ï¿½ï¿½ï¿½Hï¿½ï¿½ï¿½ï¿½ï¿½Aï¿½iï¿½ï¿½ï¿½ï¿½eï¿½j","address":"ï¿½ï¿½ï¿½cï¿½sï¿½ï¿½ï¿½ï¿½Hï¿½ï¿½2023-1","":""},"geometry":{"type":"Point","coordinates":[139.4543465,35.59778782]}},{"type":"Feature","properties":{"name":"ï¿½ï¿½ï¿½ï¿½Hï¿½ï¿½ï¿½ï¿½ï¿½Bï¿½iï¿½ì‹…ï¿½ï¿½Ï—ï¿½ï¿½È“ï¿½ï¿½ï¿½ï¿½j","address":"ï¿½ï¿½ï¿½cï¿½sï¿½ï¿½ï¿½ï¿½Hï¿½ï¿½2023-1","":""},"geometry":{"type":"Point","coordinates":[139.4547295,35.59773085]}},{"type":"Feature","properties":{"name":"ï¿½ï¿½ï¿½ï¿½Hï¿½ï¿½ï¿½ï¿½ï¿½Cï¿½iï¿½Oï¿½ï¿½ï¿½Eï¿½ï¿½ï¿½hï¿½ï¿½ï¿½j","address":"ï¿½ï¿½ï¿½cï¿½sï¿½ï¿½ï¿½ï¿½Hï¿½ï¿½2023-1","":""},"geometry":{"type":"Point","coordinates":[139.4547156,35.59818207]}},{"type":"Feature","properties":{"name":"ï¿½^ï¿½ï¿½ï¿½ï¿½ï¿½ï¿½ï¿½ï¿½","address":"ï¿½ï¿½ï¿½cï¿½sï¿½^ï¿½ï¿½ï¿½ï¿½2-2-1","":""},"geometry":{"type":"Point","coordinates":[139.465798,35.60865785]}},{"type":"Feature","properties":{"name":"ï¿½Lï¿½ÑŒï¿½ï¿½ï¿½","address":"ï¿½ï¿½ï¿½cï¿½sï¿½Lï¿½ï¿½3-4-1","":""},"geometry":{"type":"Point","coordinates":[139.4752811,35.59591838]}},{"type":"Feature","properties":{"name":"ï¿½í‚­ï¿½í‚­ï¿½vï¿½ï¿½ï¿½Uï¿½ï¿½ï¿½c","address":"ï¿½ï¿½ï¿½cï¿½sï¿½Xï¿½ï¿½1-1-15","":""},"geometry":{"type":"Point","coordinates":[139.4426539,35.54256943]}},{"type":"Feature","properties":{"name":"ï¿½ï¿½ï¿½cï¿½sï¿½ï¿½ï¿½ï¿½ï¿½sï¿½ï¿½ï¿½ï¿½","address":"ï¿½ï¿½ï¿½cï¿½sï¿½Xï¿½ï¿½2-2-22","":""},"geometry":{"type":"Point","coordinates":[139.4386545,35.54669228]}},{"type":"Feature","properties":{"name":"ï¿½ï¿½ï¿½cï¿½sï¿½ï¿½ï¿½zï¿½[ï¿½ï¿½","address":"ï¿½ï¿½ï¿½cï¿½sï¿½Xï¿½ï¿½2-2-36","":""},"geometry":{"type":"Point","coordinates":[139.439526,35.54646742]}},{"type":"Feature","properties":{"name":"ï¿½Ø‘]ï¿½Xï¿½ï¿½hï¿½Ğsï¿½ï¿½ï¿½ï¿½ï¿½ï¿½ï¿½ï¿½ï¿½ÌLï¿½ï¿½","address":"ï¿½ï¿½ï¿½cï¿½sï¿½Xï¿½ï¿½4-8","":""},"geometry":{"type":"Point","coordinates":[139.4326685,35.55527785]}},{"type":"Feature","properties":{"name":"ï¿½ï¿½ï¿½cï¿½Vï¿½oï¿½qï¿½ï¿½","address":"ï¿½ï¿½ï¿½cï¿½sï¿½ï¿½ï¿½ï¿½1-375-4","":""},"geometry":{"type":"Point","coordinates":[139.447122,35.54822334]}},{"type":"Feature","properties":{"name":"ï¿½ï¿½ï¿½ï¿½Ñ‚ï¿½ï¿½}ï¿½ï¿½ï¿½ï¿½","address":"ï¿½ï¿½ï¿½cï¿½sï¿½ï¿½ï¿½ï¿½2-13-23","":""},"geometry":{"type":"Point","coordinates":[139.4441454,35.55136772]}},{"type":"Feature","properties":{"name":"ï¿½ï¿½ï¿½cï¿½sï¿½ÛŒï¿½ï¿½ï¿½","address":"ï¿½ï¿½ï¿½cï¿½sï¿½ï¿½ï¿½ï¿½2-13-3","":""},"geometry":{"type":"Point","coordinates":[139.4437069,35.55121958]}},{"type":"Feature","properties":{"name":"ï¿½ï¿½ï¿½ï¿½ï¿½cï¿½ê’šï¿½Ú’ï¿½ï¿½Ôï¿½","address":"ï¿½ï¿½ï¿½cï¿½sï¿½ï¿½ï¿½ï¿½ï¿½c1-6-21","":""},"geometry":{"type":"Point","coordinates":[139.4475692,35.54050928]}},{"type":"Feature","properties":{"name":"ï¿½ï¿½ï¿½ï¿½ï¿½cï¿½Â‹ï¿½Ğ‚ï¿½ï¿½","address":"ï¿½ï¿½ï¿½cï¿½sï¿½ï¿½ï¿½ï¿½ï¿½c1-27","":""},"geometry":{"type":"Point","coordinates":[139.4491748,35.5369899]}},{"type":"Feature","properties":{"name":"ï¿½ï¿½ï¿½cï¿½^ï¿½[ï¿½~ï¿½iï¿½ï¿½ï¿½vï¿½ï¿½ï¿½U","address":"ï¿½ï¿½ï¿½cï¿½sï¿½ï¿½ï¿½ï¿½ï¿½c3-1-4","":""},"geometry":{"type":"Point","coordinates":[139.4492485,35.54035593]}},{"type":"Feature","properties":{"name":"ï¿½ï¿½ï¿½ï¿½ï¿½}ï¿½ï¿½ï¿½ï¿½","address":"ï¿½ï¿½ï¿½cï¿½sï¿½ï¿½ï¿½ï¿½ï¿½c3-2-9","":""},"geometry":{"type":"Point","coordinates":[139.4501544,35.5403913]}},{"type":"Feature","properties":{"name":"ï¿½ï¿½ï¿½cï¿½sï¿½ï¿½ï¿½ï¿½ï¿½ğ—¬ƒZï¿½ï¿½ï¿½^ï¿½[","address":"ï¿½ï¿½ï¿½cï¿½sï¿½ï¿½ï¿½ï¿½ï¿½c4-1-14","":""},"geometry":{"type":"Point","coordinates":[139.4481321,35.54093763]}},{"type":"Feature","properties":{"name":"ï¿½ï¿½ï¿½cï¿½sï¿½ï¿½ï¿½tï¿½Hï¿½[ï¿½ï¿½ï¿½ï¿½","address":"ï¿½ï¿½ï¿½cï¿½sï¿½ï¿½ï¿½ï¿½ï¿½c4-9-8","":""},"geometry":{"type":"Point","coordinates":[139.4499238,35.54174822]}},{"type":"Feature","properties":{"name":"ï¿½ï¿½ï¿½cï¿½sï¿½ï¿½ï¿½ï¿½ï¿½wï¿½Ù‚ï¿½ï¿½Æ‚Î‚ï¿½ï¿½ï¿½","address":"ï¿½ï¿½ï¿½cï¿½sï¿½ï¿½ï¿½ï¿½ï¿½c4-16-17","":""},"geometry":{"type":"Point","coordinates":[139.4515229,35.54259031]}},{"type":"Feature","properties":{"name":"ï¿½ï¿½ï¿½cï¿½sï¿½ï¿½ï¿½è‚ªï¿½ï¿½ï¿½ï¿½","address":"ï¿½ï¿½ï¿½cï¿½sï¿½ï¿½ï¿½ï¿½ï¿½c4-26-4","":""},"geometry":{"type":"Point","coordinates":[139.4531667,35.54450784]}},{"type":"Feature","properties":{"name":"ï¿½ï¿½ï¿½Û”Å‰ï¿½ï¿½ï¿½pï¿½ï¿½","address":"ï¿½ï¿½ï¿½cï¿½sï¿½ï¿½ï¿½ï¿½ï¿½c4-28-1","":""},"geometry":{"type":"Point","coordinates":[139.4553386,35.54401651]}},{"type":"Feature","properties":{"name":"ï¿½Úƒï¿½ï¿½Jï¿½ï¿½ï¿½ï¿½ï¿½iï¿½ï¿½ï¿½cï¿½}ï¿½ï¿½ï¿½ï¿½ï¿½j","address":"ï¿½ï¿½ï¿½cï¿½sï¿½ï¿½ï¿½ï¿½ï¿½c5-1679","":""},"geometry":{"type":"Point","coordinates":[139.4511683,35.54834149]}},{"type":"Feature","properties":{"name":"ï¿½Úƒï¿½ï¿½Jï¿½ï¿½ï¿½ï¿½ï¿½iï¿½ï¿½ï¿½Ú“Iï¿½Lï¿½ï¿½j","address":"ï¿½ï¿½ï¿½cï¿½sï¿½ï¿½ï¿½ï¿½ï¿½c5-1679","":""},"geometry":{"type":"Point","coordinates":[139.4539212,35.54626132]}},{"type":"Feature","properties":{"name":"ï¿½ï¿½ï¿½Nï¿½ï¿½ï¿½ï¿½ï¿½ï¿½ï¿½","address":"ï¿½ï¿½ï¿½cï¿½sï¿½ï¿½ï¿½ï¿½ï¿½c5-8-21","":""},"geometry":{"type":"Point","coordinates":[139.4499542,35.54609523]}},{"type":"Feature","properties":{"name":"ï¿½ï¿½ï¿½cï¿½wï¿½Oï¿½ï¿½ï¿½ï¿½ï¿½gï¿½Cï¿½ï¿½","address":"ï¿½ï¿½ï¿½cï¿½sï¿½ï¿½ï¿½ï¿½ï¿½c6-1-11ï¿½ï¿½ï¿½~ï¿½lï¿½ï¿½ï¿½cï¿½e","":""},"geometry":{"type":"Point","coordinates":[139.4464663,35.54184621]}},{"type":"Feature","properties":{"name":"ï¿½ï¿½ï¿½Uï¿½wï¿½Kï¿½Zï¿½ï¿½ï¿½^ï¿½[","address":"ï¿½ï¿½ï¿½cï¿½sï¿½ï¿½ï¿½ï¿½ï¿½c6-8-1","":""},"geometry":{"type":"Point","coordinates":[139.4471666,35.54297405]}},{"type":"Feature","properties":{"name":"ï¿½ï¿½ï¿½ï¿½ï¿½cï¿½í‚©ï¿½ÎŒï¿½ï¿½ï¿½","address":"ï¿½ï¿½ï¿½cï¿½sï¿½ï¿½ï¿½ï¿½ï¿½c6-27-3","":""},"geometry":{"type":"Point","coordinates":[139.4482203,35.54541891]}},{"type":"Feature","properties":{"name":"ï¿½ï¿½ï¿½Jï¿½ï¿½ï¿½ï¿½","address":"ï¿½ï¿½ï¿½cï¿½sï¿½ï¿½ï¿½J1104ï¿½|1","":""},"geometry":{"type":"Point","coordinates":[139.4626898,35.55026735]}},{"type":"Feature","properties":{"name":"ï¿½ï¿½ï¿½ï¿½ï¿½Rï¿½~ï¿½ï¿½ï¿½jï¿½eï¿½Bï¿½Zï¿½ï¿½ï¿½^ï¿½[","address":"ï¿½ï¿½ï¿½cï¿½sï¿½ï¿½ï¿½ï¿½ï¿½ï¿½2-49-1","":""},"geometry":{"type":"Point","coordinates":[139.4727757,35.54353038]}},{"type":"Feature","properties":{"name":"ï¿½ï¿½ï¿½ï¿½ï¿½Ù“Vï¿½ï¿½ï¿½ï¿½ï¿½ï¿½","address":"ï¿½ï¿½ï¿½cï¿½sï¿½ï¿½ï¿½ï¿½8-2045","":""},"geometry":{"type":"Point","coordinates":[139.4693299,35.54278613]}},{"type":"Feature","properties":{"name":"ï¿½ï¿½ï¿½ï¿½ï¿½wï¿½kï¿½ï¿½ï¿½wï¿½Oï¿½Lï¿½ï¿½ï¿½ï¿½ï¿½ï¿½gï¿½Cï¿½ï¿½","address":"ï¿½ï¿½ï¿½cï¿½sï¿½ì¬ï¿½ï¿½1-1","":""},"geometry":{"type":"Point","coordinates":[139.4730628,35.53556167]}},{"type":"Feature","properties":{"name":"ï¿½È‚é‚¹ï¿½wï¿½Oï¿½sï¿½ï¿½ï¿½Zï¿½ï¿½ï¿½^ï¿½[","address":"ï¿½ï¿½ï¿½cï¿½sï¿½ì¬ï¿½ï¿½1-2-5","":""},"geometry":{"type":"Point","coordinates":[139.4730256,35.53682154]}},{"type":"Feature","properties":{"name":"ï¿½ï¿½ï¿½Vï¿½ï¿½ï¿½ï¿½ï¿½","address":"ï¿½ï¿½ï¿½cï¿½sï¿½ì¬ï¿½ï¿½5-8","":""},"geometry":{"type":"Point","coordinates":[139.4769298,35.53623535]}},{"type":"Feature","properties":{"name":"ï¿½ï¿½ï¿½cï¿½sï¿½ï¿½ï¿½ï¿½ï¿½ï¿½ï¿½Ìˆï¿½ï¿½","address":"ï¿½ï¿½ï¿½cï¿½sï¿½ì¬ï¿½ï¿½5-12","":""},"geometry":{"type":"Point","coordinates":[139.479313,35.5359569]}},{"type":"Feature","properties":{"name":"ï¿½Â‚ï¿½ï¿½ï¿½ï¿½ï¿½Rï¿½~ï¿½ï¿½ï¿½jï¿½eï¿½Bï¿½Zï¿½ï¿½ï¿½^ï¿½[","address":"ï¿½ï¿½ï¿½cï¿½sï¿½Â‚ï¿½ï¿½ï¿½ï¿½ï¿½2-26-5","":""},"geometry":{"type":"Point","coordinates":[139.4846571,35.52709328]}},{"type":"Feature","properties":{"name":"ï¿½Â‚ï¿½ï¿½ï¿½ï¿½ï¿½Zï¿½ï¿½ï¿½gï¿½ï¿½ï¿½ï¿½ï¿½pï¿½[ï¿½N","address":"ï¿½ï¿½ï¿½cï¿½sï¿½Â‚ï¿½ï¿½ï¿½ï¿½ï¿½3-19","":""},"geometry":{"type":"Point","coordinates":[139.4824472,35.5204266]}},{"type":"Feature","properties":{"name":"ï¿½ï¿½ï¿½tï¿½Jï¿½ËŒï¿½ï¿½ï¿½","address":"ï¿½ï¿½ï¿½cï¿½sï¿½ï¿½ï¿½Xï¿½ï¿½1-1076-2","":""},"geometry":{"type":"Point","coordinates":[139.4642483,35.5359676]}},{"type":"Feature","properties":{"name":"ï¿½ï¿½ï¿½Xï¿½}ï¿½ï¿½ï¿½ï¿½","address":"ï¿½ï¿½ï¿½cï¿½sï¿½ï¿½ï¿½Xï¿½ï¿½3-5-1","":""},"geometry":{"type":"Point","coordinates":[139.4659348,35.53345412]}},{"type":"Feature","properties":{"name":"ï¿½ï¿½sï¿½ï¿½ï¿½Zï¿½ï¿½ï¿½^ï¿½[","address":"ï¿½ï¿½ï¿½cï¿½sï¿½ï¿½ï¿½X4-5-6","":""},"geometry":{"type":"Point","coordinates":[139.4666749,35.52385977]}},{"type":"Feature","properties":{"name":"ï¿½ï¿½ï¿½ï¿½ï¿½Nï¿½ï¿½ï¿½[ï¿½ï¿½ï¿½Zï¿½ï¿½ï¿½^ï¿½[","address":"ï¿½ï¿½ï¿½cï¿½sï¿½ì¬ï¿½ï¿½8-1-1","":""},"geometry":{"type":"Point","coordinates":[139.483665,35.53515186]}},{"type":"Feature","properties":{"name":"ï¿½Êï¿½wï¿½ï¿½ï¿½wï¿½Oï¿½Aï¿½ï¿½ï¿½ï¿½","address":"ï¿½ï¿½ï¿½cï¿½sï¿½Êï¿½wï¿½ï¿½2-18-35","":""},"geometry":{"type":"Point","coordinates":[139.4627289,35.56373092]}},{"type":"Feature","properties":{"name":"ï¿½Îƒï¿½ï¿½uï¿½Oï¿½ï¿½ï¿½Eï¿½ï¿½ï¿½h","address":"ï¿½ï¿½ï¿½cï¿½sï¿½{ï¿½ï¿½ï¿½c2380-6","":""},"geometry":{"type":"Point","coordinates":[139.4365583,35.56409302]}},{"type":"Feature","properties":{"name":"ï¿½Úƒï¿½ï¿½Jï¿½ï¿½ï¿½ï¿½ï¿½iï¿½ï¿½ï¿½Æï¿½ï¿½ÌLï¿½ï¿½j","address":"ï¿½ï¿½ï¿½cï¿½sï¿½ï¿½ï¿½ï¿½ï¿½c5-16","":""},"geometry":{"type":"Point","coordinates":[139.4550658,35.54544614]}},{"type":"Feature","properties":{"name":"ï¿½Úƒï¿½ï¿½Jï¿½ï¿½ï¿½ï¿½ï¿½iï¿½Úƒï¿½ï¿½Jï¿½Oï¿½ï¿½ï¿½Eï¿½ï¿½ï¿½hï¿½j","address":"ï¿½ï¿½ï¿½cï¿½sï¿½ï¿½ï¿½ï¿½ï¿½c5-16","":""},"geometry":{"type":"Point","coordinates":[139.4528191,35.54637398]}},{"type":"Feature","properties":{"name":"ï¿½ßŠÔŒï¿½ï¿½ï¿½","address":"ï¿½ï¿½ï¿½cï¿½sï¿½ßŠï¿½3-1-1","":""},"geometry":{"type":"Point","coordinates":[139.4661973,35.51087305]}},{"type":"Feature","properties":{"name":"ï¿½ßŠÔŒï¿½ï¿½ï¿½ï¿½Nï¿½ï¿½ï¿½uï¿½nï¿½Eï¿½X","address":"ï¿½ï¿½ï¿½cï¿½sï¿½ßŠï¿½2-5-13","":""},"geometry":{"type":"Point","coordinates":[139.4661278,35.50947826]}},{"type":"Feature","properties":{"name":"ï¿½ï¿½tï¿½rï¿½ï¿½ï¿½ï¿½ï¿½ï¿½ï¿½ï¿½ï¿½iï¿½Eï¿½Fï¿½ï¿½ï¿½Jï¿½ï¿½ï¿½Qï¿½[ï¿½gï¿½Eï¿½Cï¿½ï¿½ï¿½tï¿½Hï¿½ï¿½ï¿½[ï¿½Vï¿½ï¿½ï¿½ï¿½ï¿½j","address":"ï¿½ï¿½ï¿½cï¿½sï¿½{ï¿½ï¿½ï¿½c3105","":""},"geometry":{"type":"Point","coordinates":[139.4465087,35.57473776]}},{"type":"Feature","properties":{"name":"ï¿½ï¿½tï¿½rï¿½ï¿½ï¿½ï¿½ï¿½ï¿½ï¿½ï¿½ï¿½iï¿½Eï¿½Fï¿½ï¿½ï¿½Jï¿½ï¿½ï¿½Qï¿½[ï¿½gï¿½Eï¿½ï¿½ï¿½Eï¿½ï¿½ï¿½Wï¿½j","address":"ï¿½ï¿½ï¿½cï¿½sï¿½{ï¿½ï¿½ï¿½c3105","":""},"geometry":{"type":"Point","coordinates":[139.4466059,35.57476788]}},{"type":"Feature","properties":{"name":"ï¿½Oï¿½Öqï¿½Ç‚ï¿½ï¿½Nï¿½ï¿½ï¿½u","address":"ï¿½ï¿½ï¿½ï¿½ï¿½sï¿½ï¿½ï¿½cï¿½sï¿½Oï¿½Ö—ÎR3-25-2","":""},"geometry":{"type":"Point","coordinates":[139.4886551,35.57380757]}},{"type":"Feature","properties":{"name":"ï¿½ã¬ï¿½Rï¿½cï¿½Rï¿½~ï¿½ï¿½ï¿½jï¿½eï¿½Bï¿½Zï¿½ï¿½ï¿½^ï¿½[","address":"ï¿½ï¿½ï¿½ï¿½ï¿½sï¿½ï¿½ï¿½cï¿½sï¿½ã¬ï¿½Rï¿½cï¿½ï¿½2616-2","":""},"geometry":{"type":"Point","coordinates":[139.3983522,35.59484071]}},{"type":"Feature","properties":{"name":"ï¿½ï¿½ï¿½ï¿½ï¿½vï¿½[ï¿½ï¿½ï¿½iï¿½ï¿½ï¿½Nï¿½ï¿½ï¿½iï¿½ï¿½ï¿½ï¿½ï¿½{ï¿½İ•ï¿½ï¿½j","address":"ï¿½ï¿½ï¿½ï¿½ï¿½sï¿½ï¿½ï¿½cï¿½sï¿½}ï¿½tï¿½ï¿½199-1","":""},"geometry":{"type":"Point","coordinates":[139.4138148,35.58630765]}},{"type":"Feature","properties":{"name":"ï¿½ï¿½ï¿½ï¿½ï¿½ï¿½ï¿½ï¿½ï¿½ï¿½ï¿½ï¿½ï¿½iï¿½Åï¿½ï¿½Lï¿½ï¿½j","address":"ï¿½ï¿½ï¿½ï¿½ï¿½sï¿½ï¿½ï¿½cï¿½sï¿½ï¿½ï¿½ï¿½ï¿½ï¿½2018","":""},"geometry":{"type":"Point","coordinates":[139.3196646,35.60933497]}},{"type":"Feature","properties":{"name":"ï¿½tï¿½ï¿½ï¿½_ï¿½ï¿½","address":"ï¿½ï¿½ï¿½ï¿½ï¿½sï¿½ï¿½ï¿½cï¿½sï¿½å‘ ï¿½ï¿½2822"},"geometry":{"type":"Point","coordinates":[139.4593878,35.58582606]}}]}